,city,happiness,lat,lon,,,,,,
248,South Hams,7.65,50.372,-3.816,,,,,,
257,Weymouth and Portland,7.61,50.596,-2.472,,,,,,
249,Teignbridge,7.88,50.613,-3.656,,,,,,
251,West Devon,7.29,50.652,-4.074,,,,,,
255,Purbeck,7.74,50.685,-2.126,,,,,,
38,Craven,7.72,50.707,-104.809,,,,,,
245,Exeter,7.45,50.726,-3.527,,,,,,
244,East Devon,7.96,50.757,-3.222,,,,,,
193,Eastbourne,7.43,50.766,0.278,,,,,,
202,Gosport,7.52,50.795,-1.121,,,,,,
256,West Dorset,7.91,50.795,-2.599,,,,,,
243,Worthing,7.62,50.812,-0.37,,,,,,
204,Havant,7.62,50.833,-0.983,,,,,,
237,Adur,7.54,50.845,-0.294,,,,,,
239,Chichester,7.92,50.845,-0.783,,,,,,
201,Fareham,7.59,50.853,-1.178,,,,,,
194,Hastings,7.3,50.855,0.582,,,,,,
205,New Forest,7.94,50.856,-1.596,,,,,,
250,Torridge,7.53,50.863,-4.261,,,,,,
253,East Dorset,7.6,50.867,-1.948,,,,,,
246,Mid Devon,7.69,50.868,-3.6,,,,,,
195,Lewes,7.42,50.875,0.005,,,,,,
200,Eastleigh,7.68,50.92,-1.299,,,,,,
254,North Dorset,7.93,50.92,-2.231,,,,,,
197,Wealden,7.51,50.942,0.197,,,,,,
196,Rother,7.66,50.951,0.574,,,,,,
266,South Somerset,7.43,50.984,-2.776,,,,,,
180,Havering,7.28,51.004,-2.337,,,,,,
242,Mid Sussex,7.69,51.005,-0.127,,,,,,
267,Taunton Deane,7.26,51.005,-3.165,,,,,,
216,Shepway,7.58,51.058,1.006,,,,,,
208,Winchester,7.66,51.061,-1.313,,,,,,
247,North Devon,7.91,51.061,-3.924,,,,,,
241,Horsham,7.72,51.063,-0.33,,,,,,
199,East Hampshire,7.63,51.078,-0.944,,,,,,
240,Crawley,7.55,51.11,-0.18,,,,,,
268,West Somerset,8.14,51.119,-3.504,,,,,,
212,Dover,7.03,51.125,1.313,,,,,,
167,Tower Hamlets,7.26,51.129,1.299,,,,,,
207,Test Valley,7.52,51.134,-1.518,,,,,,
220,Tunbridge Wells,7.55,51.137,0.267,,,,,,
209,Ashford,7.68,51.149,0.872,,,,,,
265,Sedgemoor,7.64,51.187,-2.968,,,,,,
264,Mendip,7.67,51.194,-2.542,,,,,,
229,Mole Valley,7.89,51.22,-0.335,,,,,,
228,Guildford,7.62,51.236,-0.573,,,,,,
234,Tandridge,7.84,51.238,-0.046,,,,,,
230,Reigate and Banstead,7.53,51.252,-0.186,,,,,,
198,Basingstoke and Deane,7.35,51.259,-1.221,,,,,,
219,Tonbridge and Malling,7.43,51.272,0.357,,,,,,
206,Rushmoor,7.55,51.275,-0.769,,,,,,
214,Maidstone,7.75,51.275,0.523,,,,,,
215,Sevenoaks,7.72,51.275,0.196,,,,,,
210,Canterbury,7.09,51.28,1.08,,,,,,
236,Woking,7.3,51.32,-0.556,,,,,,
233,Surrey Heath,7.43,51.336,-0.692,,,,,,
217,Swale,7.34,51.337,0.801,,,,,,
218,Thanet,7.32,51.353,1.332,,,,,,
175,Croydon,7.39,51.371,-0.102,,,,,,
231,Runnymede,7.11,51.395,-0.552,,,,,,
213,Gravesham,7.77,51.397,0.396,,,,,,
282,The Vale of Glamorgan / Bro Morgannwg,7.24,51.402,-3.531,,,,,,
174,Bromley,7.48,51.403,0.015,,,,,,
183,Kingston upon Thames,7.49,51.41,-0.306,,,,,,
184,Merton,7.51,51.411,-0.188,,,,,,
232,Spelthorne,7.39,51.425,-0.459,,,,,,
211,Dartford,7.53,51.434,0.245,,,,,,
186,Richmond upon Thames,7.48,51.441,-0.308,,,,,,
168,Wandsworth,7.39,51.457,-0.193,,,,,,
164,Lewisham ,7.23,51.462,-0.01,,,,,,
182,Hounslow,7.56,51.469,-0.361,,,,,,
178,Greenwich,7.17,51.482,-0.005,,,,,,
283,Cardiff / Caerdydd,7.5,51.482,-3.179,,,,,,
159,Hammersmith and Fulham ,7.34,51.498,-0.228,,,,,,
169,Westminster,7.41,51.5,-0.127,,,,,,
163,Lambeth ,7.34,51.501,-0.117,,,,,,
166,Southwark,7.43,51.503,-0.103,,,,,,
162,Kensington and Chelsea,7.46,51.504,-0.201,,,,,,
281,Bridgend / Pen-y-bont ar Ogwr,7.4,51.505,-3.576,,,,,,
176,Ealing,7.48,51.513,-0.305,,,,,,
165,Newham ,7.56,51.53,0.029,,,,,,
161,Islington,7.16,51.538,-0.1,,,,,,
158,Hackney ,7.18,51.543,-0.049,,,,,,
181,Hillingdon,7.31,51.543,-0.448,,,,,,
124,Castle Point,7.37,51.544,0.584,,,,,,
170,Barking and Dagenham,7.24,51.554,0.151,,,,,,
191,South Bucks,7.62,51.56,-0.585,,,,,,
188,Waltham Forest,7.42,51.563,-0.029,,,,,,
173,Brent ,7.36,51.564,-0.276,,,,,,
121,Basildon,7.52,51.575,0.476,,,,,,
286,Caerphilly / Caerffili,7.39,51.575,-3.221,,,,,,
185,Redbridge,7.45,51.576,0.045,,,,,,
130,Rochford,7.55,51.584,0.679,,,,,,
160,Haringey,7.27,51.588,-0.105,,,,,,
290,Newport / Casnewydd,7.22,51.588,-2.997,,,,,,
280,Neath Port Talbot / Castell-nedd Port Talbot,7.28,51.595,-3.782,,,,,,
179,Harrow,7.51,51.597,-0.337,,,,,,
279,Swansea / Abertawe,7.41,51.62,-3.946,,,,,,
284,Rhondda Cynon Taf / Rhondda Cynon Taf,7.45,51.624,-3.473,,,,,,
223,South Oxfordshire,8,51.637,-1.08,,,,,,
177,Enfield,7.44,51.652,-0.081,,,,,,
171,Barnet,7.46,51.653,-0.2,,,,,,
224,Vale of White Horse,7.71,51.654,-1.486,,,,,,
141,Watford,7.4,51.655,-0.396,,,,,,
192,Wycombe,7.29,51.664,-0.818,,,,,,
127,Epping Forest,7.4,51.668,0.055,,,,,,
190,Chiltern,7.95,51.679,-0.63,,,,,,
136,Hertsmere,7.12,51.681,-0.268,,,,,,
288,Torfaen / Tor-faen,7.3,51.701,-3.052,,,,,,
129,Maldon,7.93,51.716,0.684,,,,,,
125,Chelmsford,7.78,51.735,0.473,,,,,,
262,Stroud,7.45,51.745,-2.22,,,,,,
133,Broxbourne,7.14,51.747,-0.019,,,,,,
138,St Albans,7.16,51.749,-0.342,,,,,,
285,Merthyr Tydfil / Merthyr Tudful,7.17,51.749,-3.379,,,,,,
289,Monmouthshire / Sir Fynwy,7.59,51.751,-2.849,,,,,,
222,Oxford,7.52,51.752,-1.258,,,,,,
287,Blaenau Gwent / Blaenau Gwent,7.29,51.765,-3.16,,,,,,
134,Dacorum,7.6,51.769,-0.552,,,,,,
142,Welwyn Hatfield,7.5,51.773,-0.21,,,,,,
260,Forest of Dean,7.11,51.8,-2.531,,,,,,
225,West Oxfordshire,7.91,51.84,-1.512,,,,,,
259,Cotswold,7.76,51.845,-1.891,,,,,,
277,Pembrokeshire / Sir Benfro,7.57,51.857,-4.915,,,,,,
261,Gloucester,7.55,51.865,-2.246,,,,,,
135,East Hertfordshire,7.28,51.866,0.012,,,,,,
131,Tendring,7.46,51.875,1.113,,,,,,
126,Colchester,7.72,51.89,0.899,,,,,,
278,Carmarthenshire / Sir Gaerfyrddin,7.48,51.894,-4.217,,,,,,
189,Aylesbury Vale,7.33,51.9,-0.878,,,,,,
258,Cheltenham,7.29,51.9,-2.071,,,,,,
139,Stevenage,7.7,51.904,-0.201,,,,,,
132,Uttlesford,7.51,51.93,0.271,,,,,,
137,North Hertfordshire,7.53,51.957,-0.223,,,,,,
221,Cherwell,7.64,51.975,-1.226,,,,,,
263,Tewkesbury,7.59,51.993,-2.156,,,,,,
73,South Holland,7.15,51.997,4.56,,,,,,
152,Ipswich,7.27,52.058,1.153,,,,,,
150,Babergh,7.6,52.063,0.912,,,,,,
81,South Northamptonshire,7.82,52.118,-1.08,,,,,,
155,Suffolk Coastal,7.34,52.15,1.4,,,,,,
101,Stratford-on-Avon,7.71,52.162,-1.636,,,,,,
111,Malvern Hills,7.54,52.168,-2.331,,,,,,
114,Wychavon,7.9,52.18,-2.062,,,,,,
120,South Cambridgeshire,7.77,52.18,-0.003,,,,,,
116,Cambridge,7.33,52.206,0.119,,,,,,
154,St Edmundsbury,8,52.227,0.69,,,,,,
80,Northampton,7.43,52.234,-0.903,,,,,,
153,Mid Suffolk,7.45,52.235,1.045,,,,,,
77,Daventry,7.71,52.265,-1.164,,,,,,
102,Warwick,7.61,52.281,-1.582,,,,,,
82,Wellingborough,7.5,52.302,-0.694,,,,,,
112,Redditch,7.69,52.306,-1.942,,,,,,
226,Elmbridge,7.32,52.323,-2.159,,,,,,
151,Forest Heath,7.63,52.333,0.539,,,,,,
117,East Cambridgeshire,8.03,52.335,0.263,,,,,,
110,Bromsgrove,7.36,52.339,-2.053,,,,,,
119,Huntingdonshire,7.43,52.371,-0.224,,,,,,
100,Rugby,7.66,52.373,-1.262,,,,,,
115,Wyre Forest,7.41,52.385,-2.235,,,,,,
104,Coventry,7.41,52.408,-1.51,,,,,,
107,Solihull,7.48,52.413,-1.777,,,,,,
276,Ceredigion / Ceredigion,7.61,52.419,-4.084,,,,,,
156,Waveney,7.64,52.431,1.554,,,,,,
78,East Northamptonshire,7.48,52.449,-0.508,,,,,,
103,Birmingham,7.4,52.48,-1.903,,,,,,
76,Corby,7.59,52.486,-0.704,,,,,,
99,Nuneaton and Bedworth,7.7,52.501,-1.468,,,,,,
275,Powys / Powys,7.47,52.505,-3.323,,,,,,
105,Dudley ,7.31,52.511,-2.082,,,,,,
106,Sandwell ,7.12,52.515,-2.014,,,,,,
149,South Norfolk,7.8,52.517,1.366,,,,,,
64,Harborough,7.73,52.539,-0.92,,,,,,
98,North Warwickshire,7.18,52.561,-1.63,,,,,,
62,Blaby,8.06,52.573,-1.165,,,,,,
108,Walsall,7.35,52.585,-1.982,,,,,,
109,Wolverhampton,7.08,52.585,-2.128,,,,,,
68,Oadby and Wigston,7.46,52.587,-1.1,,,,,,
143,Breckland,7.46,52.59,0.759,,,,,,
94,South Staffordshire,7.39,52.605,-2.259,,,,,,
145,Great Yarmouth,7.76,52.607,1.731,,,,,,
65,Hinckley and Bosworth,7.63,52.608,-1.417,,,,,,
148,Norwich,7.49,52.629,1.292,,,,,,
92,Lichfield,7.79,52.684,-1.828,,,,,,
144,Broadland,7.45,52.693,1.256,,,,,,
90,Cannock Chase,6.92,52.707,-1.978,,,,,,
146,King__ Lynn and West Norfolk,7.52,52.713,0.435,,,,,,
63,Charnwood,7.53,52.739,-1.137,,,,,,
67,North West Leicestershire,7.38,52.77,-1.397,,,,,,
95,Stafford,7.62,52.806,-2.116,,,,,,
66,Melton,7.68,52.812,-0.859,,,,,,
61,South Derbyshire,7.42,52.822,-1.503,,,,,,
147,North Norfolk,7.43,52.836,1.128,,,,,,
74,South Kesteven,7.76,52.85,-0.495,,,,,,
91,East Staffordshire,7.61,52.888,-1.903,,,,,,
89,Rushcliffe,7.62,52.913,-1.011,,,,,,
58,Erewash,7.73,52.938,-1.351,,,,,,
85,Broxtowe,7.42,52.978,-1.217,,,,,,
93,Newcastle-under-Lyme,7.16,53.012,-2.227,,,,,,
86,Gedling,7.62,53.026,-1.107,,,,,,
54,Amber Valley,7.71,53.029,-1.463,,,,,,
274,Wrexham / Wrecsam,7.39,53.047,-2.994,,,,,,
272,Denbighshire / Sir Ddinbych,7.55,53.054,-3.302,,,,,,
96,Staffordshire Moorlands,7.88,53.072,-1.974,,,,,,
72,North Kesteven,7.74,53.073,-0.447,,,,,,
88,Newark and Sherwood,7.41,53.109,-0.944,,,,,,
57,Derbyshire Dales,7.95,53.13,-1.656,,,,,,
55,Bolsover,6.89,53.197,-1.256,,,,,,
60,North East Derbyshire,7.23,53.223,-1.524,,,,,,
273,Flintshire / Sir y Fflint,7.46,53.249,-3.135,,,,,,
70,East Lindsey,7.47,53.268,0.013,,,,,,
269,Isle of Anglesey / Ynys M_n,7.64,53.278,-4.331,,,,,,
271,Conwy / Conwy,7.56,53.281,-3.829,,,,,,
22,Chorley,7.79,53.308,-2.262,,,,,,
37,Wirral,7.27,53.341,-3.05,,,,,,
59,High Peak,7.53,53.368,-1.853,,,,,,
48,Sheffield,7.4,53.381,-1.47,,,,,,
75,West Lindsey,7.8,53.398,-0.504,,,,,,
34,Liverpool,7.05,53.407,-2.992,,,,,,
17,Stockport,7.41,53.408,-2.16,,,,,,
19,Trafford,7.4,53.419,-2.359,,,,,,
33,Knowsley ,7.08,53.425,-2.824,,,,,,
47,Rotherham ,7.21,53.431,-1.355,,,,,,
36,St. Helens,7.26,53.454,-2.734,,,,,,
13,Manchester,7.31,53.479,-2.245,,,,,,
18,Tameside,7.26,53.479,-2.077,,,,,,
16,Salford,7.23,53.488,-2.289,,,,,,
46,Doncaster,7.45,53.523,-1.134,,,,,,
20,Wigan,7.31,53.546,-2.626,,,,,,
45,Barnsley,7.41,53.553,-1.483,,,,,,
35,Sefton,7.35,53.57,-3.065,,,,,,
11,Bolton,7.41,53.578,-2.43,,,,,,
31,West Lancashire,7.06,53.611,-2.857,,,,,,
15,Rochdale,7.31,53.615,-2.156,,,,,,
51,Kirklees ,7.38,53.642,-1.781,,,,,,
53,Wakefield,7.48,53.683,-1.497,,,,,,
29,Rossendale,7.31,53.685,-2.261,,,,,,
50,Calderdale,7.4,53.72,-1.962,,,,,,
30,South Ribble,7.8,53.727,-2.733,,,,,,
27,Preston,7.22,53.759,-2.699,,,,,,
24,Hyndburn,7.64,53.761,-2.39,,,,,,
44,Selby,7.6,53.785,-1.099,,,,,,
21,Burnley,7.52,53.791,-2.244,,,,,,
23,Fylde,7.78,53.793,-2.894,,,,,,
49,Bradford ,7.47,53.794,-1.752,,,,,,
52,Leeds ,7.34,53.797,-1.544,,,,,,
26,Pendle,7.72,53.879,-2.172,,,,,,
28,Ribble Valley,8.21,53.903,-2.423,,,,,,
40,Harrogate,7.64,53.992,-1.539,,,,,,
6,Barrow-in-Furness,7.19,54.111,-3.229,,,,,,
42,Ryedale,7.54,54.198,-0.861,,,,,,
39,Hambleton,7.76,54.25,-1.437,,,,,,
10,South Lakeland,7.75,54.272,-2.771,,,,,,
43,Scarborough,7.54,54.282,-0.401,,,,,,
41,Richmondshire,7.11,54.357,-1.985,,,,,,
328,Fermanagh and Omagh,8.26,54.441,-7.757,,,,,,
331,Mid Ulster,7.91,54.444,-7.259,,,,,,
325,Belfast,7.35,54.596,-5.93,,,,,,
333,North Down and Ards,7.32,54.649,-5.563,,,,,,
323,Antrim and Newtownabbey,7.99,54.681,-5.885,,,,,,
5,Allerdale,8.06,54.709,-3.253,,,,,,
327,Derry and Strabane,7.48,54.835,-7.458,,,,,,
7,Carlisle,7.37,54.895,-2.936,,,,,,
4,Sunderland,7.27,54.906,-1.383,,,,,,
0,Gateshead,7.25,54.963,-1.602,,,,,,
3,South Tyneside,7.2,54.97,-1.448,,,,,,
1,Newcastle upon Tyne,7.2,54.974,-1.613,,,,,,
2,North Tyneside,7.26,55.03,-1.508,,,,,,
296,Dumfries and Galloway,7.81,55.049,-3.849,,,,,,
326,Causeway Coast and Glens,7.92,55.131,-6.328,,,,,,
318,South Ayrshire,7.55,55.3,-4.646,,,,,,
298,East Ayrshire,7.27,55.451,-4.243,,,,,,
317,Scottish Borders ,7.57,55.527,-2.861,,,,,,
319,South Lanarkshire,7.37,55.568,-3.751,,,,,,
313,North Ayrshire,7.27,55.728,-4.727,,,,,,
301,East Renfrewshire,7.5,55.749,-4.361,,,,,,
311,Midlothian,7.39,55.821,-3.119,,,,,,
316,Renfrewshire,7.32,55.848,-4.5,,,,,,
308,Glasgow City,7.17,55.856,-4.226,,,,,,
314,North Lanarkshire,7.34,55.883,-3.946,,,,,,
322,West Lothian,7.44,55.888,-3.613,,,,,,
310,Inverclyde,7.36,55.905,-4.748,,,,,,
302,City of Edinburgh,7.61,55.912,-3.277,,,,,,
300,East Lothian,7.45,55.916,-2.751,,,,,,
235,Waverley,7.61,55.952,-3.19,,,,,,
299,East Dunbartonshire,7.62,55.963,-4.203,,,,,,
321,West Dunbartonshire,7.2,55.987,-4.526,,,,,,
306,Falkirk,7.61,55.999,-3.784,,,,,,
320,Stirling,7.56,56.118,-3.936,,,,,,
295,Clackmannanshire,7.38,56.145,-3.755,,,,,,
307,Fife,7.4,56.23,-2.983,,,,,,
294,Argyll and Bute,7.68,56.46,-5.862,,,,,,
297,Dundee City,7.02,56.474,-2.966,,,,,,
315,Perth and Kinross,7.69,56.54,-3.755,,,,,,
293,Angus,7.6,56.724,-2.895,,,,,,
291,Aberdeen City,7.4,57.148,-2.093,,,,,,
292,Aberdeenshire,7.64,57.224,-2.758,,,,,,
312,Moray,7.5,57.417,-3.25,,,,,,
309,Highland,7.79,57.507,-5.004,,,,,,
303,Eilean Siar,8.15,57.667,-7.167,,,,,,
304,Orkney Islands,8.09,59.013,-3.231,,,,,,
32,Wyre,7.48,59.119,-2.97,,,,,,